[
  {
    "prefecture": "北海道",
    "city": "札幌市",
    "lat": 43.06417,
    "lon": 141.34694
  },
  {
    "prefecture": "北海道",
    "city": "旭川市",
    "lat": 43.77063,
    "lon": 142.36489
  },
  {
    "prefecture": "北海道",
    "city": "函館市",
    "lat": 41.76879,
    "lon": 140.72881
  },
  {
    "prefecture": "青森県",
    "city": "青森市",
    "lat": 40.82444,
    "lon": 140.74
  },
  {
    "prefecture": "青森県",
    "city": "弘前市",
    "lat": 40.60306,
    "lon": 140.46472
  },
  {
    "prefecture": "岩手県",
    "city": "盛岡市",
    "lat": 39.70361,
    "lon": 141.1525
  },
  {
    "prefecture": "岩手県",
    "city": "一関市",
    "lat": 38.934,
    "lon": 141.123
  },
  {
    "prefecture": "宮城県",
    "city": "仙台市",
    "lat": 38.26889,
    "lon": 140.87194
  },
  {
    "prefecture": "宮城県",
    "city": "石巻市",
    "lat": 38.43611,
    "lon": 141.28944
  },
  {
    "prefecture": "秋田県",
    "city": "秋田市",
    "lat": 39.71944,
    "lon": 140.10333
  },
  {
    "prefecture": "秋田県",
    "city": "横手市",
    "lat": 39.31889,
    "lon": 140.56861
  },
  {
    "prefecture": "山形県",
    "city": "山形市",
    "lat": 38.24056,
    "lon": 140.36333
  },
  {
    "prefecture": "山形県",
    "city": "米沢市",
    "lat": 37.92222,
    "lon": 140.10333
  },
  {
    "prefecture": "福島県",
    "city": "福島市",
    "lat": 37.76083,
    "lon": 140.47472
  },
  {
    "prefecture": "福島県",
    "city": "会津若松市",
    "lat": 37.49417,
    "lon": 139.92972
  },
  {
    "prefecture": "茨城県",
    "city": "水戸市",
    "lat": 36.34139,
    "lon": 140.44667
  },
  {
    "prefecture": "茨城県",
    "city": "つくば市",
    "lat": 36.08333,
    "lon": 140.07611
  },
  {
    "prefecture": "栃木県",
    "city": "宇都宮市",
    "lat": 36.56583,
    "lon": 139.88361
  },
  {
    "prefecture": "栃木県",
    "city": "日光市",
    "lat": 36.73306,
    "lon": 139.59861
  },
  {
    "prefecture": "群馬県",
    "city": "前橋市",
    "lat": 36.39111,
    "lon": 139.06083
  },
  {
    "prefecture": "群馬県",
    "city": "高崎市",
    "lat": 36.32139,
    "lon": 139.01944
  },
  {
    "prefecture": "埼玉県",
    "city": "さいたま市",
    "lat": 35.85694,
    "lon": 139.64889
  },
  {
    "prefecture": "埼玉県",
    "city": "川越市",
    "lat": 35.92506,
    "lon": 139.4855
  },
  {
    "prefecture": "千葉県",
    "city": "千葉市",
    "lat": 35.60472,
    "lon": 140.12333
  },
  {
    "prefecture": "千葉県",
    "city": "成田市",
    "lat": 35.77639,
    "lon": 140.31861
  },
  {
    "prefecture": "東京都",
    "city": "東京都",
    "lat": 35.6895,
    "lon": 139.6917
  },
  {
    "prefecture": "東京都",
    "city": "八王子市",
    "lat": 35.655,
    "lon": 139.338
  },
  {
    "prefecture": "神奈川県",
    "city": "横浜市",
    "lat": 35.44778,
    "lon": 139.6425
  },
  {
    "prefecture": "神奈川県",
    "city": "川崎市",
    "lat": 35.53083,
    "lon": 139.70361
  },
  {
    "prefecture": "神奈川県",
    "city": "箱根町",
    "lat": 35.2325,
    "lon": 139.10639
  },
  {
    "prefecture": "新潟県",
    "city": "新潟市",
    "lat": 37.90222,
    "lon": 139.02361
  },
  {
    "prefecture": "新潟県",
    "city": "長岡市",
    "lat": 37.4475,
    "lon": 138.85778
  },
  {
    "prefecture": "富山県",
    "city": "富山市",
    "lat": 36.69528,
    "lon": 137.21139
  },
  {
    "prefecture": "富山県",
    "city": "高岡市",
    "lat": 36.75472,
    "lon": 137.01583
  },
  {
    "prefecture": "石川県",
    "city": "金沢市",
    "lat": 36.56139,
    "lon": 136.65622
  },
  {
    "prefecture": "石川県",
    "city": "七尾市",
    "lat": 37.09417,
    "lon": 137.03194
  },
  {
    "prefecture": "福井県",
    "city": "福井市",
    "lat": 36.06528,
    "lon": 136.22194
  },
  {
    "prefecture": "福井県",
    "city": "敦賀市",
    "lat": 35.65611,
    "lon": 136.05778
  },
  {
    "prefecture": "山梨県",
    "city": "甲府市",
    "lat": 35.66444,
    "lon": 138.56833
  },
  {
    "prefecture": "山梨県",
    "city": "富士吉田市",
    "lat": 35.48972,
    "lon": 138.80583
  },
  {
    "prefecture": "長野県",
    "city": "長野市",
    "lat": 36.65139,
    "lon": 138.18111
  },
  {
    "prefecture": "長野県",
    "city": "松本市",
    "lat": 36.23806,
    "lon": 137.97139
  },
  {
    "prefecture": "岐阜県",
    "city": "岐阜市",
    "lat": 35.42333,
    "lon": 136.76056
  },
  {
    "prefecture": "岐阜県",
    "city": "高山市",
    "lat": 36.14028,
    "lon": 137.25028
  },
  {
    "prefecture": "静岡県",
    "city": "静岡市",
    "lat": 34.97556,
    "lon": 138.38278
  },
  {
    "prefecture": "静岡県",
    "city": "浜松市",
    "lat": 34.71083,
    "lon": 137.72611
  },
  {
    "prefecture": "愛知県",
    "city": "名古屋市",
    "lat": 35.18147,
    "lon": 136.90641
  },
  {
    "prefecture": "愛知県",
    "city": "豊田市",
    "lat": 35.08306,
    "lon": 137.15611
  },
  {
    "prefecture": "三重県",
    "city": "津市",
    "lat": 34.72943,
    "lon": 136.50861
  },
  {
    "prefecture": "三重県",
    "city": "四日市市",
    "lat": 34.96583,
    "lon": 136.62278
  },
  {
    "prefecture": "滋賀県",
    "city": "大津市",
    "lat": 35.00444,
    "lon": 135.86833
  },
  {
    "prefecture": "滋賀県",
    "city": "彦根市",
    "lat": 35.27472,
    "lon": 136.25444
  },
  {
    "prefecture": "京都府",
    "city": "京都市",
    "lat": 35.01167,
    "lon": 135.76833
  },
  {
    "prefecture": "京都府",
    "city": "亀岡市",
    "lat": 35.29306,
    "lon": 135.54861
  },
  {
    "prefecture": "大阪府",
    "city": "大阪市",
    "lat": 34.6937,
    "lon": 135.5023
  },
  {
    "prefecture": "大阪府",
    "city": "堺市",
    "lat": 34.57306,
    "lon": 135.48278
  },
  {
    "prefecture": "大阪府",
    "city": "豊中市",
    "lat": 34.80361,
    "lon": 135.49222
  },
  {
    "prefecture": "兵庫県",
    "city": "神戸市",
    "lat": 34.6913,
    "lon": 135.183
  },
  {
    "prefecture": "兵庫県",
    "city": "姫路市",
    "lat": 34.83944,
    "lon": 134.69389
  },
  {
    "prefecture": "奈良県",
    "city": "奈良市",
    "lat": 34.68528,
    "lon": 135.83278
  },
  {
    "prefecture": "奈良県",
    "city": "橿原市",
    "lat": 34.50472,
    "lon": 135.79111
  },
  {
    "prefecture": "和歌山県",
    "city": "和歌山市",
    "lat": 34.22611,
    "lon": 135.1675
  },
  {
    "prefecture": "和歌山県",
    "city": "白浜町",
    "lat": 33.69278,
    "lon": 135.36444
  },
  {
    "prefecture": "鳥取県",
    "city": "鳥取市",
    "lat": 35.50361,
    "lon": 134.23778
  },
  {
    "prefecture": "鳥取県",
    "city": "米子市",
    "lat": 35.42889,
    "lon": 133.33111
  },
  {
    "prefecture": "島根県",
    "city": "松江市",
    "lat": 35.47222,
    "lon": 133.05056
  },
  {
    "prefecture": "島根県",
    "city": "出雲市",
    "lat": 35.3925,
    "lon": 132.75917
  },
  {
    "prefecture": "岡山県",
    "city": "岡山市",
    "lat": 34.66167,
    "lon": 133.935
  },
  {
    "prefecture": "岡山県",
    "city": "倉敷市",
    "lat": 34.58306,
    "lon": 133.76944
  },
  {
    "prefecture": "広島県",
    "city": "広島市",
    "lat": 34.39627,
    "lon": 132.45937
  },
  {
    "prefecture": "広島県",
    "city": "福山市",
    "lat": 34.48583,
    "lon": 133.36278
  },
  {
    "prefecture": "山口県",
    "city": "山口市",
    "lat": 34.17833,
    "lon": 131.47361
  },
  {
    "prefecture": "山口県",
    "city": "下関市",
    "lat": 33.95778,
    "lon": 130.94167
  },
  {
    "prefecture": "徳島県",
    "city": "徳島市",
    "lat": 34.07028,
    "lon": 134.55444
  },
  {
    "prefecture": "徳島県",
    "city": "鳴門市",
    "lat": 34.20583,
    "lon": 134.60083
  },
  {
    "prefecture": "香川県",
    "city": "高松市",
    "lat": 34.34278,
    "lon": 134.04639
  },
  {
    "prefecture": "香川県",
    "city": "丸亀市",
    "lat": 34.30028,
    "lon": 133.80806
  },
  {
    "prefecture": "愛媛県",
    "city": "松山市",
    "lat": 33.83944,
    "lon": 132.76528
  },
  {
    "prefecture": "愛媛県",
    "city": "今治市",
    "lat": 34.06583,
    "lon": 132.97556
  },
  {
    "prefecture": "高知県",
    "city": "高知市",
    "lat": 33.55833,
    "lon": 133.53111
  },
  {
    "prefecture": "高知県",
    "city": "四万十市",
    "lat": 33.17861,
    "lon": 132.85972
  },
  {
    "prefecture": "福岡県",
    "city": "福岡市",
    "lat": 33.5902,
    "lon": 130.4017
  },
  {
    "prefecture": "福岡県",
    "city": "北九州市",
    "lat": 33.88361,
    "lon": 130.87583
  },
  {
    "prefecture": "福岡県",
    "city": "久留米市",
    "lat": 33.31667,
    "lon": 130.52028
  },
  {
    "prefecture": "佐賀県",
    "city": "佐賀市",
    "lat": 33.24944,
    "lon": 130.29889
  },
  {
    "prefecture": "佐賀県",
    "city": "唐津市",
    "lat": 33.40139,
    "lon": 129.97472
  },
  {
    "prefecture": "長崎県",
    "city": "長崎市",
    "lat": 32.75028,
    "lon": 129.8775
  },
  {
    "prefecture": "長崎県",
    "city": "佐世保市",
    "lat": 33.16667,
    "lon": 129.71611
  },
  {
    "prefecture": "熊本県",
    "city": "熊本市",
    "lat": 32.7898,
    "lon": 130.7417
  },
  {
    "prefecture": "熊本県",
    "city": "八代市",
    "lat": 32.5025,
    "lon": 130.60111
  },
  {
    "prefecture": "大分県",
    "city": "大分市",
    "lat": 33.23806,
    "lon": 131.6125
  },
  {
    "prefecture": "大分県",
    "city": "別府市",
    "lat": 33.30694,
    "lon": 131.49194
  },
  {
    "prefecture": "宮崎県",
    "city": "宮崎市",
    "lat": 31.91111,
    "lon": 131.42389
  },
  {
    "prefecture": "宮崎県",
    "city": "都城市",
    "lat": 31.72306,
    "lon": 131.06806
  },
  {
    "prefecture": "鹿児島県",
    "city": "鹿児島市",
    "lat": 31.56028,
    "lon": 130.55806
  },
  {
    "prefecture": "鹿児島県",
    "city": "指宿市",
    "lat": 31.25722,
    "lon": 130.57833
  },
  {
    "prefecture": "沖縄県",
    "city": "那覇市",
    "lat": 26.2125,
    "lon": 127.68111
  },
  {
    "prefecture": "沖縄県",
    "city": "石垣市",
    "lat": 24.34028,
    "lon": 124.15361
  },
  {
    "prefecture": "北海道",
    "city": "帯広市",
    "lat": 42.92306,
    "lon": 143.19639
  },
  {
    "prefecture": "愛知県",
    "city": "豊橋市",
    "lat": 34.76917,
    "lon": 137.38306
  }
]